     2.11           OBSERVATION DATA    M (MIXED)           RINEX VERSION / TYPE
teqc  2017Sep15     UNAVCO Archive Ops  20180102 00:12:22UTCPGM / RUN BY / DATE
Solaris x86 5.10|AMD64|cc SC5.8 -xarch=amd64|=+|=+          COMMENT
  0.0080      (antenna height)                              COMMENT
 +39.94949481 (latitude)                                    COMMENT
-105.19427154 (longitude)                                   COMMENT
1732.132      (elevation)                                   COMMENT
BIT 2 OF LLI FLAGS DATA COLLECTED UNDER A/S CONDITION       COMMENT
P041 (COGO code)                                            COMMENT
P041                                                        MARKER NAME
                                                            MARKER NUMBER
Glen Mattioli       UNAVCO                                  OBSERVER / AGENCY
5046K71644          TRIMBLE NETR9       5.30                REC # / TYPE / VERS
0220363249          TRM59800.80     SCIT                    ANT # / TYPE
 -1283634.1275 -4726427.8944  4074798.0304                  APPROX POSITION XYZ
        0.0083        0.0000        0.0000                  ANTENNA: DELTA H/E/N
     1     1                                                WAVELENGTH FACT L1/2
     7    L1    L2    C1    P2    P1    S1    S2            # / TYPES OF OBSERV
    15.0000                                                 INTERVAL
    18                                                      LEAP SECONDS
input file: p041201801010000a.tgd                           COMMENT
RINEX file created by UNAVCO GPS Archive.                   COMMENT
For more information contact archive-gps@unavco.org         COMMENT
Monument ID: 18024                                          COMMENT
UNAVCO 4-char name:   P041                                  COMMENT
4-char name from Log or data file: P041                     COMMENT
Monument location: 39.949492 -105.194266 1728.8417          COMMENT
Visit ID: 120189                                            COMMENT
                                                            COMMENT
Marshal_Fields_Boulder_CO_2004_CGPS                         COMMENT
                                                            COMMENT
doi:10.7283/T5R49NQQ                                        COMMENT
End of DB comments                                          COMMENT
 SNR is mapped to RINEX snr flag value [0-9]                COMMENT
  L1 & L2: min(max(int(snr_dBHz/6), 0), 9)                  COMMENT
  2018     1     1     0     0    0.0000000     GPS         TIME OF FIRST OBS
                                                            END OF HEADER
 18  1  1  0  0  0.0000000  0 18G22R02R12R22R14G26R21G30G27R03R04G09
                                G03G07G16G08G23R13
 130174553.565 5 101434766.55842  24771397.359    24771403.449
        31.900          17.400
 108498511.283 8  84387785.712 8  20332576.164    20332581.035    20332575.359
        51.500          48.200
 112374840.578 7                  21036801.023                    21036799.664
        47.300
 124708667.185 7  96995627.122 6  23362138.672    23362141.859    23362136.555
        43.700          40.800
 121358049.086 7  94389590.526 6  22766465.688    22766470.363    22766464.465
        44.600          39.600
 121796189.197 7  94906351.02645  23177074.555    23177082.621
        44.300          30.900
 126494864.057 7  98384901.450 6  23638595.578    23638596.227    23638592.680
        44.000          38.900
 131978481.622 6 102840484.12542  25114686.078    25114694.422
        38.700          15.600
 119020848.951 7  92743577.40445  22648913.563    22648921.316
        44.500          32.400
 105247806.640 8  81859429.849 8  19661170.859    19661173.145    19661170.137
        51.600          50.500
 124028624.235 6  96466759.717 6  23161478.664    23161481.105    23161477.473
        40.400          37.100
 109639540.442 8  85433423.14147  20863699.477    20863705.473
        49.800          43.700
 123266377.569 7  96051791.05444  23456816.500    23456824.387
        43.400          27.200
 120549681.975 7  93934844.18845  22939835.305    22939839.504
        47.900          33.400
 109179392.721 8  85074868.95047  20776133.156    20776136.316
        49.900          42.100
 126336793.789 6  98444300.68644  24041093.852    24041102.680
        39.900          24.000
 106500264.764 8  82987264.16147  20266322.711    20266324.215
        52.800          47.200
 105759972.255 7  82257817.668 7  19805443.281    19805447.355    19805442.430
        47.300          44.200
 18  1  1  0  0 15.0000000  0 18G22R02R12R22R14G26R21G30G27R03R04G09
                                G03G07G16G08G23R13
 130225773.840 5 101474678.37342  24781147.867    24781149.387
        35.200          16.900
 108546417.221 8  84425045.865 8  20341553.625    20341558.848    20341552.844
        50.900          48.500
 112415705.373 7                  21044450.656                    21044449.672
        46.900
 124668980.546 7  96964759.754 6  23354702.336    23354706.934    23354702.121
        43.400          40.400
 121314239.461 7  94355516.407 6  22758246.438    22758251.230    22758245.969
        44.600          40.000
 121843338.625 7  94943090.84645  23186047.617    23186054.980
        44.600          32.300
 126498904.323 7  98388043.896 6  23639348.852    23639350.203    23639347.270
        42.900          38.800
 131936302.334 6 102807617.16642  25106659.656    25106667.590
        38.400          16.300
 118986400.290 7  92716734.31945  22642358.703    22642365.520
        44.400          31.900
 105233182.935 8  81848055.855 8  19658438.688    19658441.324    19658438.035
        51.800          50.300
 123968327.960 6  96419862.639 6  23150217.602    23150220.633    23150217.609
        40.600          37.700
 109610360.355 8  85410685.41447  20858146.727    20858152.371
        50.000          43.900
 123318117.849 7  96092108.14444  23466662.055    23466670.293
        43.100          25.600
 120515852.086 7  93908483.25345  22933397.047    22933401.715
        47.900          33.300
 109206506.360 8  85095996.46446  20781292.656    20781295.934
        49.800          41.900
 126286965.155 6  98405473.20144  24031611.406    24031619.414
        39.600          25.800
 106499588.280 8  82986737.02847  20266193.750    20266195.723
        53.500          47.200
 105750079.996 7  82250123.701 7  19803591.672    19803594.574    19803589.879
        47.200          44.200
